<?xml version="1.0" encoding="UTF-8"?>
<gpx version="1.1" creator="thecrag_scraper" xmlns="http://www.topografix.com/GPX/1/1">
  <wpt lat="-35.27620365628" lon="149.09724923764">
    <name>T02 · Black Mountain Bouldering 🚫All Bouldering44
            routesincrag</name>
    <desc>44 problems — https://www.thecrag.com/en/climbing/australia/black-mountain-bouldering</desc>
    <sym>Pin</sym>
  </wpt>
  <wpt lat="-35.42914855" lon="149.5397276">
    <name>T03 · Black Range boulderingAll Bouldering596
            routesincrag</name>
    <desc>596 problems — https://www.thecrag.com/en/climbing/australia/black-range-bouldering</desc>
    <sym>Pin</sym>
  </wpt>
  <wpt lat="-35.4434" lon="149.5399">
    <name>T03 · ★★Chopper (V5)</name>
    <desc>https://www.thecrag.com/en/climbing/australia/black-range-bouldering/route/10610907957</desc>
    <sym>Flag</sym>
  </wpt>
  <wpt lat="-35.3171878" lon="149.05655355">
    <name>T04 · Canberra</name>
    <desc>141 problems — https://www.thecrag.com/en/climbing/australia/river-crags</desc>
    <sym>Pin</sym>
  </wpt>
  <wpt lat="-35.36183801437" lon="149.03420095798">
    <name>T05 · Cooleman Ridge BoulderingAll Bouldering159
            routesincrag</name>
    <desc>92 problems — https://www.thecrag.com/en/climbing/australia/cooleman-ridge-bouldering</desc>
    <sym>Pin</sym>
  </wpt>
  <wpt lat="-35.5051093" lon="148.91492545">
    <name>T06 · Corin Road Bouldering</name>
    <desc>638 problems — https://www.thecrag.com/en/climbing/australia/corin-road-bouldering</desc>
    <sym>Pin</sym>
  </wpt>
  <wpt lat="-35.5334248" lon="148.8673874">
    <name>T06 · ★C3 (V0)</name>
    <desc>https://www.thecrag.com/en/climbing/australia/corin-road-bouldering/route/4039767558</desc>
    <sym>Flag</sym>
  </wpt>
  <wpt lat="-35.477682" lon="148.928839">
    <name>T06 · ★★Born-again Hooligan (V4)</name>
    <desc>https://www.thecrag.com/en/climbing/australia/corin-road-bouldering/route/28857135</desc>
    <sym>Flag</sym>
  </wpt>
  <wpt lat="-35.50097774815" lon="148.92151305642">
    <name>T07 · Gibraltar and Corin Road</name>
    <desc>2 problems — https://www.thecrag.com/en/climbing/australia/gibraltar-peak-and-corin-road-crags</desc>
    <sym>Pin</sym>
  </wpt>
  <wpt lat="-35.60065880829" lon="148.945766131">
    <name>T08 · Legoland</name>
    <desc>15 problems — https://www.thecrag.com/en/climbing/australia/orroral-ridge/legoland</desc>
    <sym>Pin</sym>
  </wpt>
  <wpt lat="-35.35794453227" lon="149.03089721809">
    <name>T09 · NibloAll Bouldering52
            routesincrag</name>
    <desc>52 problems — https://www.thecrag.com/en/climbing/australia/cooleman-ridge-bouldering/niblo</desc>
    <sym>Pin</sym>
  </wpt>
  <wpt lat="-35.60075085" lon="148.9578458">
    <name>T10 · Orroral Ridge</name>
    <desc>28 problems — https://www.thecrag.com/en/climbing/australia/orroral-ridge</desc>
    <sym>Pin</sym>
  </wpt>
  <wpt lat="-35.63181876632" lon="148.97376908425">
    <name>T11 · Orroral Tor</name>
    <desc>1 problems — https://www.thecrag.com/en/climbing/australia/orroral-valley/orroral-tor</desc>
    <sym>Pin</sym>
  </wpt>
  <wpt lat="-35.64127889797" lon="148.94336840141">
    <name>T12 · Orroral Valley</name>
    <desc>138 problems — https://www.thecrag.com/en/climbing/australia/orroral-valley</desc>
    <sym>Pin</sym>
  </wpt>
  <wpt lat="-35.3738266" lon="148.92541445">
    <name>T13 · Pierce&#x27;s Creek</name>
    <desc>690 problems — https://www.thecrag.com/en/climbing/australia/pierces-creek-bouldering</desc>
    <sym>Pin</sym>
  </wpt>
  <wpt lat="-35.3687551" lon="148.9290742">
    <name>T13 · ★Dead point (V5)</name>
    <desc>https://www.thecrag.com/en/climbing/australia/pierces-creek-bouldering/route/3224428311</desc>
    <sym>Flag</sym>
  </wpt>
  <wpt lat="-35.370133" lon="148.923828">
    <name>T13 · ★★Hardenbergia (V4)</name>
    <desc>https://www.thecrag.com/en/climbing/australia/pierces-creek-bouldering/route/3831995553</desc>
    <sym>Flag</sym>
  </wpt>
  <wpt lat="-35.76051698284" lon="148.95061963139">
    <name>T14 · Southern ACT</name>
    <desc>55 problems — https://www.thecrag.com/en/climbing/australia/southern-act</desc>
    <sym>Pin</sym>
  </wpt>
  <wpt lat="-35.4616254" lon="148.9603986">
    <name>T15 · The Fortress</name>
    <desc>6 problems — https://www.thecrag.com/en/climbing/australia/gibraltar-peak-and-corin-road-crags/the-fortress</desc>
    <sym>Pin</sym>
  </wpt>
  <wpt lat="-35.36396666667" lon="149.03633333333">
    <name>T16 · V8 TraverseAll Bouldering15
            routesincrag</name>
    <desc>15 problems — https://www.thecrag.com/en/climbing/australia/cooleman-ridge-bouldering/v8-traverse</desc>
    <sym>Pin</sym>
  </wpt>
  <wpt lat="-35.51976066667" lon="148.94380039197">
    <name>T17 · White Horse Rocks</name>
    <desc>1 problems — https://www.thecrag.com/en/climbing/australia/gibraltar-peak-and-corin-road-crags/white-horse-rocks</desc>
    <sym>Pin</sym>
  </wpt>
</gpx>
